<?xml version="1.0" encoding="UTF-8"?>
<kml xmlns="http://www.opengis.net/kml/2.2"><Document><name>Irland Rundreise Polarsteps Vorplanung</name>
    <Placemark><name>01 - Dublin Airport</name><description>Tag 1; Nächte: 0; Ankunft / Mietwagen übernehmen</description><Point><coordinates>-6.249900,53.426400,0</coordinates></Point></Placemark>
    <Placemark><name>02 - Dublin</name><description>Tag 1; Nächte: 1; Temple Bar, Trinity College, Guinness Storehouse</description><Point><coordinates>-6.260300,53.349800,0</coordinates></Point></Placemark>
    <Placemark><name>03 - Glendalough</name><description>Tag 2; Nächte: 0; Zwischenstopp Wicklow Mountains</description><Point><coordinates>-6.327500,53.010000,0</coordinates></Point></Placemark>
    <Placemark><name>04 - Rock of Cashel</name><description>Tag 2; Nächte: 0; Zwischenstopp Richtung Kilkenny</description><Point><coordinates>-7.890500,52.520100,0</coordinates></Point></Placemark>
    <Placemark><name>05 - Kilkenny</name><description>Tag 2; Nächte: 1; Castle, Medieval Mile, Abendessen</description><Point><coordinates>-7.244800,52.654100,0</coordinates></Point></Placemark>
    <Placemark><name>06 - Kinsale</name><description>Tag 3; Nächte: 1; Charles Fort, Hafen, Altstadt</description><Point><coordinates>-8.522200,51.705900,0</coordinates></Point></Placemark>
    <Placemark><name>07 - Killarney</name><description>Tag 4; Nächte: 2; Basis für Nationalpark und Dingle</description><Point><coordinates>-9.504400,52.059900,0</coordinates></Point></Placemark>
    <Placemark><name>08 - Muckross House</name><description>Tag 4; Nächte: 0; Nationalpark-Stop</description><Point><coordinates>-9.501900,52.018600,0</coordinates></Point></Placemark>
    <Placemark><name>09 - Torc Waterfall</name><description>Tag 4; Nächte: 0; Kurzer Spaziergang</description><Point><coordinates>-9.506900,52.002000,0</coordinates></Point></Placemark>
    <Placemark><name>10 - Gap of Dunloe</name><description>Tag 5; Nächte: 0; Aussicht / Tagesrunde</description><Point><coordinates>-9.633400,52.019500,0</coordinates></Point></Placemark>
    <Placemark><name>11 - Ladies View</name><description>Tag 5; Nächte: 0; Aussichtspunkt</description><Point><coordinates>-9.574600,51.974200,0</coordinates></Point></Placemark>
    <Placemark><name>12 - Dingle</name><description>Tag 6; Nächte: 0; Tagesausflug / Lunch</description><Point><coordinates>-10.264000,52.140900,0</coordinates></Point></Placemark>
    <Placemark><name>13 - Slea Head Drive</name><description>Tag 6; Nächte: 0; Panoramaroute</description><Point><coordinates>-10.461100,52.104900,0</coordinates></Point></Placemark>
    <Placemark><name>14 - Dunquin Pier</name><description>Tag 6; Nächte: 0; Fotostopp</description><Point><coordinates>-10.460400,52.132400,0</coordinates></Point></Placemark>
    <Placemark><name>15 - Coumeenoole Beach</name><description>Tag 6; Nächte: 0; Strand / Fotostopp</description><Point><coordinates>-10.462200,52.107800,0</coordinates></Point></Placemark>
    <Placemark><name>16 - Connor Pass</name><description>Tag 6; Nächte: 0; Aussicht bei gutem Wetter</description><Point><coordinates>-10.205000,52.180800,0</coordinates></Point></Placemark>
    <Placemark><name>17 - Doolin</name><description>Tag 6; Nächte: 1; Basis Cliffs of Moher</description><Point><coordinates>-9.377800,53.016700,0</coordinates></Point></Placemark>
    <Placemark><name>18 - Cliffs of Moher</name><description>Tag 6; Nächte: 0; Sonnenuntergang / Wetter prüfen</description><Point><coordinates>-9.430900,52.971500,0</coordinates></Point></Placemark>
    <Placemark><name>19 - Galway</name><description>Tag 7; Nächte: 2; Latin Quarter, Spanish Arch, Pubs</description><Point><coordinates>-9.056800,53.270700,0</coordinates></Point></Placemark>
    <Placemark><name>20 - Kylemore Abbey</name><description>Tag 8; Nächte: 0; Connemara Tagesrunde</description><Point><coordinates>-9.888100,53.561900,0</coordinates></Point></Placemark>
    <Placemark><name>21 - Connemara National Park</name><description>Tag 8; Nächte: 0; Wandern / Aussicht</description><Point><coordinates>-9.948200,53.548500,0</coordinates></Point></Placemark>
    <Placemark><name>22 - Benbulben</name><description>Tag 9; Nächte: 0; Fotostopp</description><Point><coordinates>-8.471600,54.367700,0</coordinates></Point></Placemark>
    <Placemark><name>23 - Sligo</name><description>Tag 9; Nächte: 1; Strandhill Beach / Abendessen</description><Point><coordinates>-8.476100,54.276600,0</coordinates></Point></Placemark>
    <Placemark><name>24 - Belfast</name><description>Tag 10; Nächte: 2; Titanic Quarter, Cathedral Quarter</description><Point><coordinates>-5.930100,54.597300,0</coordinates></Point></Placemark>
    <Placemark><name>25 - Titanic Belfast</name><description>Tag 10; Nächte: 0; Museum / Quarter</description><Point><coordinates>-5.909700,54.608200,0</coordinates></Point></Placemark>
    <Placemark><name>26 - Dunluce Castle</name><description>Tag 11; Nächte: 0; Causeway Coast Stop</description><Point><coordinates>-6.579700,55.210800,0</coordinates></Point></Placemark>
    <Placemark><name>27 - Giant's Causeway</name><description>Tag 11; Nächte: 0; Hauptstopp Causeway Coast</description><Point><coordinates>-6.511600,55.240800,0</coordinates></Point></Placemark>
    <Placemark><name>28 - Carrick-a-Rede Rope Bridge</name><description>Tag 11; Nächte: 0; Nur bei gutem Wetter / buchen prüfen</description><Point><coordinates>-6.331900,55.240600,0</coordinates></Point></Placemark>
    <Placemark><name>29 - Dublin</name><description>Tag 12; Nächte: 1; Rückfahrt, letzter Abend</description><Point><coordinates>-6.260300,53.349800,0</coordinates></Point></Placemark>
    <Placemark><name>30 - Dublin Airport</name><description>Tag 13; Nächte: 0; Mietwagen abgeben / Abflug</description><Point><coordinates>-6.249900,53.426400,0</coordinates></Point></Placemark>
<Placemark><name>Route Reihenfolge</name><LineString><tessellate>1</tessellate><coordinates>-6.249900,53.426400,0 -6.260300,53.349800,0 -6.327500,53.010000,0 -7.890500,52.520100,0 -7.244800,52.654100,0 -8.522200,51.705900,0 -9.504400,52.059900,0 -9.501900,52.018600,0 -9.506900,52.002000,0 -9.633400,52.019500,0 -9.574600,51.974200,0 -10.264000,52.140900,0 -10.461100,52.104900,0 -10.460400,52.132400,0 -10.462200,52.107800,0 -10.205000,52.180800,0 -9.377800,53.016700,0 -9.430900,52.971500,0 -9.056800,53.270700,0 -9.888100,53.561900,0 -9.948200,53.548500,0 -8.471600,54.367700,0 -8.476100,54.276600,0 -5.930100,54.597300,0 -5.909700,54.608200,0 -6.579700,55.210800,0 -6.511600,55.240800,0 -6.331900,55.240600,0 -6.260300,53.349800,0 -6.249900,53.426400,0</coordinates></LineString></Placemark>
</Document></kml>